stop_id,stop_code,stop_name,stop_desc,stop_lat,stop_lon,zone_id,stop_url,location_type,parent_station,stop_timezone,wheelchair_boarding
C1012,1012,帯広貨物,,42.92557,143.14979,1012,,0,,,
T1012,1012,帯広貨物,,42.92557,143.14979,1012,,0,,,
C1025,1025,釧路貨物,,43.00141,144.35135,1025,,0,,,
T1025,1025,釧路貨物,,43.00141,144.35135,1025,,0,,,
C1120,1120,中斜里オフレールステーション,,43.87438,144.65906,1120,,0,,,
C1302,1302,北旭川,,43.80074,142.42453,1302,,0,,,
T1302,1302,北旭川,,43.80074,142.42453,1302,,0,,,
C1310,1310,名寄オフレールステーション,,44.34929,142.46561,1310,,0,,,
C1420,1420,北見,,43.80549,143.89830,1420,,0,,,
T1420,1420,北見,,43.80549,143.89830,1420,,0,,,
C1514,1514,小樽築港オフレールステーション,,43.18387,141.02111,1514,,0,,,
C1525,1525,札幌貨物ターミナル,,43.04414,141.44687,1525,,0,,,
T1525,1525,札幌貨物ターミナル,,43.04414,141.44687,1525,,0,,,
C1543,1543,滝川,,43.55492,141.90070,1543,,0,,,
T1543,1543,滝川,,43.55492,141.90070,1543,,0,,,
C1608,1608,東室蘭,,42.35476,141.03388,1608,,0,,,
T1608,1608,東室蘭,,42.35476,141.03388,1608,,0,,,
C1617,1617,苫小牧貨物,,42.65168,141.63270,1617,,0,,,
T1617,1617,苫小牧貨物,,42.65168,141.63270,1617,,0,,,
C1708,1708,富良野,,43.34717,142.39150,1708,,0,,,
T1708,1708,富良野,,43.34717,142.39150,1708,,0,,,
C1803,1803,函館貨物,,41.80342,140.73337,1803,,0,,,
T1803,1803,函館貨物,,41.80342,140.73337,1803,,0,,,
T2007,2007,水沢,,39.13899,141.14596,2007,,0,,,
T2018,2018,盛岡貨物ターミナル,,39.64144,141.14510,2018,,0,,,
T2034,2034,八戸貨物,,40.51996,141.44421,2034,,0,,,
T203501,203501,北沼,,40.55718,141.48253,203501,,0,,,
T2043,2043,東青森,,40.81047,140.78314,2043,,0,,,
T2241,2241,秋田貨物,,39.74169,140.10324,2241,,0,,,
T2254,2254,大館,,40.28803,140.55457,2254,,0,,,
T2405,2405,郡山貨物ターミナル,,37.37000,140.37555,2405,,0,,,
T2424,2424,岩沼,,38.11187,140.86325,2424,,0,,,
T2428,2428,仙台貨物ターミナル,,38.25325,140.90574,2428,,0,,,
T243201,243201,仙台港,,38.27658,141.01435,243201,,0,,,
T243204,243204,仙台西港,,38.27186,140.99213,243204,,0,,,
T2551,2551,石巻港,,38.41852,141.28709,2551,,0,,,
T3010,3010,黒井,,37.18415,138.26823,3010,,0,,,
T3019,3019,南長岡,,37.43413,138.84817,3019,,0,,,
T3036,3036,焼島,,37.92770,139.08369,3036,,0,,,
T3040,3040,新潟貨物ターミナル,,37.90853,139.10841,3040,,0,,,
T3061,3061,酒田港,,38.92094,139.82497,3061,,0,,,
T4105,4105,熊谷貨物ターミナル,,36.16289,139.35041,4105,,0,,,
T4113,4113,倉賀野,,36.30037,139.04988,4113,,0,,,
T4203,4203,土浦,,36.07847,140.20590,4203,,0,,,
T4220,4220,日立,,36.59009,140.66167,4220,,0,,,
T422902,422902,小名浜,,36.94700,140.90358,422902,,0,,,
T434101,434101,千葉貨物,,35.55658,140.12121,434101,,0,,,
T434109,434109,京葉久保田,,35.46381,139.99456,434109,,0,,,
T436302,436302,神栖,,35.90988,140.65643,436302,,0,,,
T436304,436304,奥野谷浜,,35.90489,140.68698,436304,,0,,,
T4425,4425,宇都宮貨物ターミナル,,36.45370,139.87008,4425,,0,,,
T4450,4450,隅田川,,35.73294,139.79956,4450,,0,,,
T4475,4475,越谷貨物ターミナル,,35.87598,139.80067,4475,,0,,,
T4505,4505,東京貨物ターミナル,,35.60240,139.75791,4505,,0,,,
T4506,4506,川崎貨物,,35.52963,139.74597,4506,,0,,,
T450702,450702,千鳥町,,35.51936,139.75152,450702,,0,,,
T450703,450703,末広町,,35.53047,139.77041,450703,,0,,,
T453310,453310,横浜本牧,,35.42048,139.67098,453310,,0,,,
T453312,453312,神奈川臨海鉄道（本牧埠頭）,,35.43242,139.67431,453312,,0,,,
T4538,4538,横浜羽沢,,35.48408,139.58959,4538,,0,,,
T4548,4548,相模貨物,,35.32242,139.33157,4548,,0,,,
T4620,4620,竜王,,35.66848,138.51912,4620,,0,,,
T4670,4670,梶ケ谷貨物ターミナル,,35.58046,139.60486,4670,,0,,,
T4674,4674,新座貨物ターミナル,,35.80182,139.54680,4674,,0,,,
T5016,5016,北長野,,36.66504,138.22243,5016,,0,,,
T5141,5141,南松本,,36.21064,137.96942,5141,,0,,,
T5203,5203,沼津,,35.10272,138.86050,5203,,0,,,
T5209,5209,富士,,35.15104,138.65246,5209,,0,,,
T5213,5213,静岡貨物,,34.98856,138.42166,5213,,0,,,
T5229,5229,西浜松,,34.69441,137.71423,5229,,0,,,
T540801,540801,名古屋臨海鉄道（東港）,,35.07935,136.90372,540801,,0,,,
T540802,540802,名古屋南貨物,,35.02019,136.87984,540802,,0,,,
T5410,5410,名古屋貨物ターミナル,,35.12574,136.86178,5410,,0,,,
T5423,5423,岐阜貨物ターミナル,,35.40265,136.71678,5423,,0,,,
T546602,546602,半田埠頭,,34.88160,136.95345,546602,,0,,,
T5510,5510,四日市,,34.96130,136.63014,5510,,0,,,
T5605,5605,春日井,,35.24628,136.98204,5605,,0,,,
T5608,5608,多治見,,35.33822,137.11814,5608,,0,,,
T5710,5710,南福井,,36.04507,136.21735,5710,,0,,,
T5725,5725,金沢貨物ターミナル,,36.59058,136.66562,5725,,0,,,
T5737,5737,富山貨物,,36.71113,137.23779,5737,,0,,,
T5823,5823,高岡貨物,,36.78806,137.06113,5823,,0,,,
T5843,5843,速星,,36.66391,137.16030,5843,,0,,,
T6011,6011,京都貨物,,34.98434,135.74077,6011,,0,,,
T6017,6017,吹田貨物ターミナル,,34.78992,135.54996,6017,,0,,,
T6020,6020,大阪貨物ターミナル,,34.77631,135.57079,6020,,0,,,
T6032,6032,神戸貨物ターミナル,,34.65187,135.13528,6032,,0,,,
T6049,6049,姫路貨物,,34.80518,134.75336,6049,,0,,,
T6131,6131,安治川口,,34.67326,135.44358,6131,,0,,,
T6215,6215,百済貨物ターミナル,,34.63465,135.54358,6215,,0,,,
T6616,6616,伯耆大山,,35.43009,133.38400,6616,,0,,,
T6708,6708,岡山貨物ターミナル,,34.65601,133.89371,6708,,0,,,
T671006,671006,東水島,,34.50853,133.75512,671006,,0,,,
T6713,6713,東福山,,34.49546,133.40654,6713,,0,,,
T7001,7001,高松貨物ターミナル,,34.34160,134.00011,7001,,0,,,
T7011,7011,伊予三島,,33.97969,133.54239,7011,,0,,,
T7012,7012,新居浜,,33.94802,133.29463,7012,,0,,,
T7019,7019,松山貨物,,33.79192,132.74774,7019,,0,,,
T8010,8010,広島貨物ターミナル,,34.39213,132.48801,8010,,0,,,
T8016,8016,大竹,,34.21742,132.22332,8016,,0,,,
T8020,8020,岩国,,34.17187,132.22554,8020,,0,,,
T8030,8030,新南陽,,34.06937,131.76947,8030,,0,,,
T8041,8041,宇部,,34.00326,131.22202,8041,,0,,,
T8051,8051,下関,,33.94215,130.91788,8051,,0,,,
T9005,9005,北九州貨物ターミナル,,33.89854,130.92594,9005,,0,,,
T9019,9019,福岡貨物ターミナル,,33.63023,130.42044,9019,,0,,,
T9032,9032,鳥栖貨物ターミナル,,33.38470,130.52489,9032,,0,,,
T9103,9103,鍋島,,33.25888,130.26547,9103,,0,,,
T9410,9410,西大分,,33.24473,131.58342,9410,,0,,,
T9420,9420,延岡,,32.59008,131.67261,9420,,0,,,
T9516,9516,熊本,,32.77643,130.68657,9516,,0,,,
T9530,9530,八代,,32.50424,130.62103,9530,,0,,,
T9603,9603,川内,,31.81348,130.31220,9603,,0,,,
T9606,9606,鹿児島貨物ターミナル,,31.60211,130.56413,9606,,0,,,
C2007,2007,水沢,,39.13899,141.14596,2007,,0,,,
C2010,2010,六原オフレールステーション,,39.22787,141.09763,2010,,0,,,
C2018,2018,盛岡貨物ターミナル,,39.64144,141.14510,2018,,0,,,
C2034,2034,八戸貨物,,40.51996,141.44421,2034,,0,,,
C203501,203501,北沼,,40.55718,141.48253,203501,,0,,,
C2043,2043,東青森,,40.81047,140.78314,2043,,0,,,
C2207,2207,山形オフレールステーション,,38.24713,140.32746,2207,,0,,,
C2227,2227,横手新営業所,,39.31007,140.56045,2227,,0,,,
C2241,2241,秋田貨物,,39.74169,140.10324,2241,,0,,,
C2254,2254,大館,,40.28803,140.55457,2254,,0,,,
C2259,2259,弘前新営業所,,40.59994,140.48456,2259,,0,,,
C2314,2314,羽後本荘オフレールステーション,,39.38672,140.05743,2314,,0,,,
C2405,2405,郡山貨物ターミナル,,37.37000,140.37555,2405,,0,,,
C2415,2415,東福島オフレールステーション,,37.79968,140.47719,2415,,0,,,
C2424,2424,岩沼,,38.11187,140.86325,2424,,0,,,
C2428,2428,仙台貨物ターミナル,,38.25325,140.90574,2428,,0,,,
C243201,243201,仙台港,,38.27658,141.01435,243201,,0,,,
C243204,243204,仙台西港,,38.27186,140.99213,243204,,0,,,
C2475,2475,会津若松オフレールステーション,,37.50887,139.93114,2475,,0,,,
C2540,2540,古川オフレールステーション,,38.57377,140.96434,2540,,0,,,
C2551,2551,石巻港,,38.41852,141.28709,2551,,0,,,
C3010,3010,黒井,,37.18415,138.26823,3010,,0,,,
C3014,3014,柏崎オフレールステーション,,37.36330,138.55626,3014,,0,,,
C3019,3019,南長岡,,37.43413,138.84817,3019,,0,,,
C3036,3036,焼島,,37.92770,139.08369,3036,,0,,,
C3040,3040,新潟貨物ターミナル,,37.90853,139.10841,3040,,0,,,
C3052,3052,中条オフレールステーション,,38.04963,139.39782,3052,,0,,,
C3061,3061,酒田港,,38.92094,139.82497,3061,,0,,,
C4105,4105,熊谷貨物ターミナル,,36.16289,139.35041,4105,,0,,,
C4113,4113,倉賀野,,36.30037,139.04988,4113,,0,,,
C4203,4203,土浦,,36.07847,140.20590,4203,,0,,,
C4213,4213,水戸オフレールステーション,,36.37094,140.47642,4213,,0,,,
C4220,4220,日立,,36.59009,140.66167,4220,,0,,,
C422902,422902,小名浜,,36.94700,140.90358,422902,,0,,,
C434101,434101,千葉貨物,,35.55658,140.12121,434101,,0,,,
C434109,434109,京葉久保田,,35.46381,139.99456,434109,,0,,,
C436302,436302,神栖,,35.90988,140.65643,436302,,0,,,
C436304,436304,奥野谷浜,,35.90489,140.68698,436304,,0,,,
C4418,4418,羽生オフレールステーション,,36.17477,139.56865,4418,,0,,,
C4425,4425,宇都宮貨物ターミナル,,36.45370,139.87008,4425,,0,,,
C4439,4439,矢板オフレールステーション,,36.80672,139.93284,4439,,0,,,
C4450,4450,隅田川,,35.73294,139.79956,4450,,0,,,
C4475,4475,越谷貨物ターミナル,,35.87598,139.80067,4475,,0,,,
C4505,4505,東京貨物ターミナル,,35.60240,139.75791,4505,,0,,,
C4506,4506,川崎貨物,,35.52963,139.74597,4506,,0,,,
C450702,450702,千鳥町,,35.51936,139.75152,450702,,0,,,
C450703,450703,末広町,,35.53047,139.77041,450703,,0,,,
C453310,453310,横浜本牧,,35.42048,139.67098,453310,,0,,,
C453312,453312,神奈川臨海鉄道（本牧埠頭）,,35.43242,139.67431,453312,,0,,,
C4538,4538,横浜羽沢,,35.48408,139.58959,4538,,0,,,
C4548,4548,相模貨物,,35.32242,139.33157,4548,,0,,,
C4610,4610,八王子オフレールステーション,,35.65517,139.33933,4610,,0,,,
C4620,4620,竜王,,35.66848,138.51912,4620,,0,,,
C4670,4670,梶ケ谷貨物ターミナル,,35.58046,139.60486,4670,,0,,,
C4674,4674,新座貨物ターミナル,,35.80182,139.54680,4674,,0,,,
C5016,5016,北長野,,36.66504,138.22243,5016,,0,,,
C5106,5106,岡谷新営業所,,36.05677,138.04497,5106,,0,,,
C5141,5141,南松本,,36.21064,137.96942,5141,,0,,,
C5203,5203,沼津,,35.10272,138.86050,5203,,0,,,
C5209,5209,富士,,35.15104,138.65246,5209,,0,,,
C5213,5213,静岡貨物,,34.98856,138.42166,5213,,0,,,
C5229,5229,西浜松,,34.69441,137.71423,5229,,0,,,
C5233,5233,豊橋オフレールステーション,,34.76245,137.38259,5233,,0,,,
C5404,5404,刈谷オフレールステーション,,34.99075,137.01011,5404,,0,,,
C540801,540801,名古屋臨海鉄道（東港）,,35.07935,136.90372,540801,,0,,,
C540802,540802,名古屋南貨物,,35.02019,136.87984,540802,,0,,,
C5410,5410,名古屋貨物ターミナル,,35.12574,136.86178,5410,,0,,,
C5423,5423,岐阜貨物ターミナル,,35.40265,136.71678,5423,,0,,,
C546602,546602,半田埠頭,,34.88160,136.95345,546602,,0,,,
C5510,5510,四日市,,34.96130,136.63014,5510,,0,,,
C5605,5605,春日井,,35.24628,136.98204,5605,,0,,,
C5608,5608,多治見,,35.33822,137.11814,5608,,0,,,
C5710,5710,南福井,,36.04507,136.21735,5710,,0,,,
C5725,5725,金沢貨物ターミナル,,36.59058,136.66562,5725,,0,,,
C5737,5737,富山貨物,,36.71113,137.23779,5737,,0,,,
C5744,5744,青海オフレールステーション,,37.02249,137.79550,5744,,0,,,
C5760,5760,敦賀港新営業所,,35.66372,136.07404,5760,,0,,,
C5823,5823,高岡貨物,,36.78806,137.06113,5823,,0,,,
C5843,5843,速星,,36.66391,137.16030,5843,,0,,,
C6011,6011,京都貨物,,34.98434,135.74077,6011,,0,,,
C6017,6017,吹田貨物ターミナル,,34.78992,135.54996,6017,,0,,,
C6020,6020,大阪貨物ターミナル,,34.77631,135.57079,6020,,0,,,
C6032,6032,神戸貨物ターミナル,,34.65187,135.13528,6032,,0,,,
C6049,6049,姫路貨物,,34.80518,134.75336,6049,,0,,,
C6131,6131,安治川口,,34.67326,135.44358,6131,,0,,,
C6215,6215,百済貨物ターミナル,,34.63465,135.54358,6215,,0,,,
C6444,6444,和歌山新営業所,,34.24884,135.27664,6444,,0,,,
C6505,6505,福知山オフレールステーション,,35.28775,135.15206,6505,,0,,,
C6609,6609,湖山オフレールステーション,,35.51065,134.19309,6609,,0,,,
C6616,6616,伯耆大山,,35.43009,133.38400,6616,,0,,,
C6624,6624,東松江新営業所,,35.44536,133.12846,6624,,0,,,
C6708,6708,岡山貨物ターミナル,,34.65601,133.89371,6708,,0,,,
C671006,671006,東水島,,34.50853,133.75512,671006,,0,,,
C6713,6713,東福山,,34.49546,133.40654,6713,,0,,,
C7001,7001,高松貨物ターミナル,,34.34160,134.00011,7001,,0,,,
C7011,7011,伊予三島,,33.97969,133.54239,7011,,0,,,
C7012,7012,新居浜,,33.94802,133.29463,7012,,0,,,
C7019,7019,松山貨物,,33.79192,132.74774,7019,,0,,,
C7045,7045,高知オフレールステーション,,33.54088,133.55939,7045,,0,,,
C7080,7080,徳島オフレールステーション,,34.18703,134.61360,7080,,0,,,
C8010,8010,広島貨物ターミナル,,34.39213,132.48801,8010,,0,,,
C8016,8016,大竹,,34.21742,132.22332,8016,,0,,,
C8020,8020,岩国,,34.17187,132.22554,8020,,0,,,
C8030,8030,新南陽,,34.06937,131.76947,8030,,0,,,
C8032,8032,防府貨物新営業所,,34.04270,131.60754,8032,,0,,,
C8041,8041,宇部,,34.00326,131.22202,8041,,0,,,
C8051,8051,下関,,33.94215,130.91788,8051,,0,,,
C9005,9005,北九州貨物ターミナル,,33.89854,130.92594,9005,,0,,,
C9019,9019,福岡貨物ターミナル,,33.63023,130.42044,9019,,0,,,
C9032,9032,鳥栖貨物ターミナル,,33.38470,130.52489,9032,,0,,,
C9103,9103,鍋島,,33.25888,130.26547,9103,,0,,,
C9118,9118,長崎オフレールステーション,,32.75572,129.86809,9118,,0,,,
C9144,9144,有田オフレールステーション,,33.18390,129.88257,9144,,0,,,
C9410,9410,西大分,,33.24473,131.58342,9410,,0,,,
C9420,9420,延岡,,32.59008,131.67261,9420,,0,,,
C9508,9508,大牟田オフレールステーション,,33.02890,130.44352,9508,,0,,,
C9516,9516,熊本,,32.77643,130.68657,9516,,0,,,
C9530,9530,八代,,32.50424,130.62103,9530,,0,,,
C9603,9603,川内,,31.81348,130.31220,9603,,0,,,
C9606,9606,鹿児島貨物ターミナル,,31.60211,130.56413,9606,,0,,,
C9650,9650,佐土原オフレールステーション,,32.02264,131.47737,9650,,0,,,
C9654,9654,都城オフレールステーション,,31.73666,131.07241,9654,,0,,,
